,STATION,NAME,LATITUDE,LONGITUDE,ELEVATION
0,US1ORCB0040,"CLATSKANIE 8.8 SW, OR US",46.0069167,-123.3245355,194.2
1,USR0000OMLL,"MILLER OREGON, OR US",46.0228,-123.2711,332.2
2,US1ORCB0041,"CLATSKANIE 6.1 W, OR US",46.1157,-123.3313,4.6
3,US1ORCB0013,"CLATSKANIE 3.0 NE, OR US",46.131337,-123.15711,44.5
4,USC00351643,"CLATSKANIE, OR US",46.1081,-123.2058,6.7
5,USW00024229,"PORTLAND INTERNATIONAL AIRPORT, OR US",45.59578,-122.60919,6.7
0,US1ILCK0393,"TINLEY PARK 1.2 WNW, IL US",41.58237,-87.82192,215.8
1,US1ILCK0150,"ARLINGTON HEIGHTS 1.2 S, IL US",42.077974,-87.983814,208.8
2,USC00115097,"LISLE MORTON ARBORETUM, IL US",41.81271,-88.07275,206.3
3,US1ILWL0173,"LOCKPORT 5.0 W, IL US",41.57996,-88.143802,192.9
4,US1ILCK0390,"ALSIP 0.9 E, IL US",41.6726,-87.7181,182.0
5,US1ILCK0430,"WORTH 0.3 S, IL US",41.682451,-87.792025,191.4
6,US1ILWL0058,"PLAINFIELD 3.0 ESE, IL US",41.603998,-88.149027,189.3
7,US1ILWL0179,"NEW LENOX 2.8 SE, IL US",41.48683,-87.94916,217.3
8,US1ILDP0132,"WHEATON 2.0 NNE, IL US",41.8798,-88.0863,241.4
9,US1ILDP0098,"DOWNERS GROVE 0.9 S, IL US",41.784019,-88.016753,229.5
10,US1ILCK0032,"CHICAGO 6.4 NNE, IL US",41.926584,-87.656239,185.9
11,US1ILCK0395,"CHICAGO 6.8 NW NEIU PHYSICS, IL US",41.980278,-87.717083,180.7
12,US1ILCK0152,"CHICAGO RIDGE 0.2 WSW, IL US",41.701767,-87.781987,181.7
13,US1ILCK0394,"BURR RIDGE 0.5 SE, IL US",41.745055,-87.914698,212.4
14,US1ILWL0178,"MOKENA 2.1 SW, IL US",41.509032,-87.900852,215.8
15,US1ILCK0148,"OAK LAWN 1.9 SE, IL US",41.693577,-87.728993,182.3
16,USC00115763,"MONEE, IL US",41.4251,-87.75739,242.9
17,US1ILCK0422,"LA GRANGE PARK 0.7 NNE, IL US",41.840267,-87.866127,190.2
18,US1ILCK0421,"BERWYN 1.0 SSE, IL US",41.829457,-87.783805,185.6
19,US1ILCK0420,"NORTHBROOK 0.8 W, IL US",42.130675,-87.848919,206.7
20,US1ILCK0306,"OAK FOREST 0.6 N, IL US",41.6155,-87.7507,199.3
21,US1ILCK0426,"OAK PARK 1.0 SSE, IL US",41.8737341079143,-87.7856768574282,189.6
22,US1ILLK0016,"BUFFALO GROVE 1.5 N, IL US",42.188,-87.959,213.1
23,US1ILLK0136,"HIGHLAND PARK 1.1 N, IL US",42.1980607,-87.8077836,202.7
24,US1ILCK0149,"OAK LAWN 0.5 SSW, IL US",41.708447,-87.753872,182.0
25,US1ILCK0424,"TINLEY PARK 1.1 ESE, IL US",41.568898,-87.781407,212.4
26,US1ILCK0429,"HARWOOD HEIGHTS 4.0 ESE, IL US",41.945698,-87.733337,184.1
27,US1ILLK0011,"LINCOLNSHIRE 0.9 N, IL US",42.208163,-87.918786,209.1
28,USC00116616,"PARK FOREST WATER, IL US",41.49453,-87.67951,216.4
29,US1INLK0046,"ST. JOHN 0.2 WSW, IN US",41.446265,-87.480174,213.4
30,US1ILCK0382,"NILES 0.7 NE, IL US",42.0332009,-87.79905,192.0
31,US1ILWL0165,"FRANKFORT 1.3 ESE, IL US",41.49251,-87.81099,215.2
32,US1ILCK0260,"MIDLOTHIAN 1.2 SE, IL US",41.613021,-87.709663,187.5
33,US1ILDP0124,"BARTLETT 1.4 SE, IL US",41.964302,-88.187492,241.4
34,USC00121940,"CROWN POINT 1 N, IN US",41.43889,-87.35448,212.1
35,US1ILWL0042,"MOKENA 1.3 W, IL US",41.53134,-87.901152,217.9
36,US1ILDP0122,"CLARENDON HILLS 0.5 NW, IL US",41.80323,-87.965652,230.4
37,US1ILWL0166,"NAPERVILLE 3.6 SE, IL US",41.723127,-88.108765,223.7
38,US1ILCK0384,"CHICAGO 3.6 NNW, IL US",41.930228,-87.656567,182.6
39,US1ILDP0086,"LISLE 0.5 W, IL US",41.792051,-88.096664,216.4
40,US1INPT0178,"PORTAGE 1.2 SE, IN US",41.573610447311,-87.1667285743444,193.5
41,US1ILCK0412,"OAK PARK 1.1 N, IL US",41.903234,-87.787253,159.1
42,US1ILCK0014,"CHICAGO 5.5 ESE, IL US",41.800772,-87.590335,182.9
43,USC00115110,"LITTLE RED SCHOOL HOUSE, IL US",41.70883,-87.87695,219.2
44,USC00111550,"CHICAGO NORTHERLY ISLAND, IL US",41.8558,-87.6094,177.7
45,US1ILCK0139,"OAK LAWN 1.1 N, IL US",41.730399,-87.75615,191.1
46,US1ILWL0072,"NEW LENOX 2.9 ENE, IL US",41.530299,-87.929575,211.8
47,US1ILDP0117,"ELMHURST 2.0 SE, IL US",41.875167,-87.921069,211.5
48,US1ILCK0371,"EVANSTON 1.2 S, IL US",42.029123,-87.692574,185.3
49,US1INLK0050,"HOBART 1.6 E, IN US",41.5351,-87.2362,190.2
50,US1ILCK0094,"LINCOLNWOOD 1.8 E, IL US",42.001874,-87.69847,184.1
51,US1ILDP0079,"BURR RIDGE 1.9 SW, IL US",41.731939,-87.948599,220.7
52,US1ILCK0012,"BRIDGEVIEW 1.3 NNW, IL US",41.755015,-87.817285,188.1
53,US1ILDP0078,"NAPERVILLE 2.4 SE, IL US",41.741838,-88.116204,216.1
54,US1ILCK0253,"MIDLOTHIAN 0.1 SSE, IL US",41.625037,-87.723352,189.3
55,US1ILDP0198,"WOODRIDGE 0.3 SW, IL US",41.7362858224917,-88.0462452057682,226.2
56,US1ILDP0197,"WHEATON 1.4 S, IL US",41.83554,-88.11044,228.6
57,US1ILCK0098,"LA GRANGE PARK 0.7 SSW, IL US",41.822576,-87.875805,200.9
58,US1ILCK0131,"SCHAUMBURG 2.0 E, IL US",42.030278,-88.043989,226.2
59,US1ILDP0085,"VILLA PARK 1.0 NW, IL US",41.896885,-87.990348,220.1
60,US1ILCK0367,"MOUNT PROSPECT 0.2 NNE, IL US",42.067523,-87.935838,202.4
61,USC00114890,"LANSING 2 S, IL US",41.54221,-87.54173,187.1
62,US1ILWL0119,"HOMER GLEN 1.6 NW, IL US",41.6240882873535,-87.9552841186523,217.6
63,US1ILCK0407,"MATTESON 0.9 E, IL US",41.510573,-87.720298,215.2
64,US1ILCK0406,"PALATINE 1.5 NE, IL US",42.130082,-88.026691,230.1
65,US1ILDP0109,"ELMHURST 0.8 ESE, IL US",41.89287,-87.929556,209.1
66,US1INLK0067,"SCHERERVILLE 1.1 E, IN US",41.4892921447754,-87.4274597167969,196.6
67,US1ILWL0180,"MOKENA 4.4 WNW, IL US",41.555341,-87.955494,217.6
68,US1ILWL0065,"CRETE 2.6 SSW, IL US",41.417084,-87.630024,230.4
69,US1ILWL0063,"NEW LENOX 1.8 SE, IL US",41.49964,-87.96025,213.7
70,US1ILDP0102,"BOLINGBROOK 2.7 NE, IL US",41.730198,-88.044797,233.8
71,USW00004838,"CHICAGO PALWAUKEE AIRPORT, IL US",42.12076,-87.90479,191.6
72,US1ILWL0185,"LOCKPORT 0.3 WNW, IL US",41.592119,-88.053409,196.3
73,US1ILDP0189,"DOWNERS GROVE 1.8 SSE, IL US",41.7721,-88.0064,234.7
74,US1ILDP0100,"BARTLETT 1.1 SE, IL US",41.969245,-88.1873,239.6
75,US1ILCK0243,"ELMWOOD PARK 0.7 ESE, IL US",41.917679,-87.803688,195.4
76,US1ILCK0364,"EVERGREEN PARK 0.4 WNW, IL US",41.723266,-87.708302,189.6
77,US1ILWL0103,"JOLIET 1.8 NNE, IL US",41.5519218444824,-88.1105804443359,196.6
78,US1ILDP0187,"LOMBARD 0.2 N, IL US",41.877941,-88.015299,221.9
79,US1ILCK0121,"PALATINE 1.3 E, IL US",42.113853,-88.017779,223.1
80,US1ILDP0186,"MEDINAH 0.8 S, IL US",41.963429,-88.058337,228.0
81,US1INLK0063,"GARY 4.8 ENE, IN US",41.6169548034668,-87.2546310424805,186.5
82,US1INPT0157,"PORTAGE 2.4 NNW, IN US",41.619426,-87.196292,188.1
83,US1ILLK0128,"LAKE FOREST 2.0 WSW, IL US",42.2201111,-87.8905349,206.3
84,US1ILDP0192,"LOMBARD 1.7 NW, IL US",41.895164,-88.035137,217.9
85,US1ILDP0191,"WINFIELD 0.7 NE, IL US",41.877803,-88.1429,236.2
86,US1ILDP0190,"ROSELLE 1.0 SE, IL US",41.969552,-88.070584,230.7
87,US1ILCK0359,"CHICAGO 5.5 NNW, IL US",41.95025,-87.681513,182.3
88,US1ILCK0358,"BURR RIDGE 1.0 ENE, IL US",41.758549,-87.903976,207.9
89,USW00094846,"CHICAGO OHARE INTERNATIONAL AIRPORT, IL US",41.96017,-87.93164,204.8
90,US1INLK0078,"SCHERERVILLE 1.4 E, IN US",41.4852981567383,-87.4214630126953,200.3
91,US1INLK0111,"HOBART 1.1 S, IN US",41.51636,-87.26671,
92,US1INLK0117,"GARY 6.2 ENE, IN US",41.6147944,-87.2263721,188.7
93,US1ILWL0092,"NAPERVILLE 4.0 SSW, IL US",41.706241,-88.173396,203.0
94,US1INLK0115,"GARY 5.9 ENE, IN US",41.62168,-87.23483,186.2
95,US1ILCK0074,"OAK PARK 1.3 NNE, IL US",41.906214,-87.78188,192.9
96,US1ILWL0131,"HOMER GLEN 0.7 NNE, IL US",41.6084251403809,-87.9327011108398,230.7
97,US1INLK0070,"SCHERERVILLE 2.1 ESE, IN US",41.473787,-87.413925,207.9
98,US1ILCK0192,"PARK RIDGE 0.7 WNW, IL US",42.01676,-87.855668,192.6
99,US1ILWL0097,"NEW LENOX 3.3 E, IL US",41.5193405151367,-87.9193115234375,207.0
100,US1ILDP0178,"VILLA PARK 0.8 ESE, IL US",41.880333,-87.964417,206.0
101,US1ILCK0232,"ROGERS PARK 0.6 ESE, IL US",42.0043,-87.6697,180.1
102,US1INLK0110,"HIGHLAND 0.7 SW, IN US",41.540737,-87.466083,188.1
103,US1ILDP0177,"WINFIELD 0.8 ENE, IL US",41.8749,-88.1387,233.8
104,US1ILWL0136,"CRETE 3.3 ENE FRANKTUARY FARM, IL US",41.466319,-87.554383,207.0
105,US1ILDP0176,"WINFIELD 0.6 SSW, IL US",41.863891,-88.160108,227.4
106,US1ILDP0174,"BOLINGBROOK 2.6 NE, IL US",41.730712,-88.048976,229.2
107,US1ILCK0075,"ELK GROVE VILLAGE 2.2 WSW, IL US",41.995258,-88.052741,221.9
108,US1ILCK0346,"PALATINE 1.2 NW, IL US",42.126196,-88.0578,233.8
109,US1ILDP0184,"WHEATON 0.8 WNW, IL US",41.86197,-88.12017,228.9
110,US1ILCK0345,"FRANKLIN PARK 0.5 SSE, IL US",41.9294778,-87.8739955,194.5
111,US1ILCK0069,"PARK FOREST 0.8 NNE, IL US",41.4928,-87.681489,220.1
112,US1ILWL0016,"HOMER GLEN 0.8 ENE, IL US",41.627371,-87.928125,225.9
113,US1ILWL0137,"NAPERVILLE 2.8 SSW, IL US",41.72431,-88.17107,208.5
114,US1ILWL0138,"CRETE 2.7 W, IL US",41.4457,-87.66578,228.9
115,US1ILCK0229,"FLOSSMOOR 1.2 ESE, IL US",41.5318909,-87.664093,202.1
116,US1ILDP0180,"BOLINGBROOK 2.7 NE, IL US",41.731049,-88.045575,227.4
117,US1INLK0124,"SCHERERVILLE 2.4 E, IN US",41.485444,-87.401352,199.3
118,US1INLK0089,"HAMMOND 0.6 SSW, IN US",41.6121,-87.4941,180.1
119,US1ILDP0049,"NAPERVILLE 2.5 ESE, IL US",41.74607,-88.11143,223.1
120,US1ILCK0063,"ELK GROVE VILLAGE 0.6 ESE, IL US",42.003899,-87.981309,213.1
121,US1ILCK0061,"OAK PARK 1.0 SW, IL US",41.87558,-87.80111,192.9
122,US1ILDP0164,"WEST CHICAGO 3.5 SE, IL US",41.850232,-88.179728,227.7
123,US1ILDP0042,"CAROL STREAM 0.3 SSE, IL US",41.91301,-88.129388,231.0
124,US1ILDP0163,"LOMBARD 1.2 E, IL US",41.872971,-87.99117,220.4
125,US1ILCK0064,"HOMEWOOD 0.1 ESE, IL US",41.557694,-87.659444,196.0
126,US1ILDP0173,"LOMBARD 1.2 N, IL US",41.89235,-88.01232,200.3
127,US1ILCK0214,"ROGERS PARK 1.5 SW, IL US",41.995667,-87.691833,181.4
128,USC00117457,"ROMEOVILLE WEATHER FORECAST OFFICE, IL US",41.60413,-88.08497,201.2
129,USW00014819,"CHICAGO MIDWAY AIRPORT, IL US",41.78412,-87.75514,185.8
130,USC00115314,"MANHATTAN 5 ENE, IL US",41.45886,-87.91044,228.0
131,US1ILCK0211,"OAK LAWN 1.6 WNW, IL US",41.72686005,-87.77773285,188.1
132,US1ILLK0103,"BUFFALO GROVE 1.3 ESE, IL US",42.161133,-87.939419,201.5
133,US1ILLK0069,"HIGHWOOD 0.9 S, IL US",42.1984100341797,-87.8139877319336,210.0
134,US1ILCK0336,"EVANSTON 0.8 ESE, IL US",42.04309,-87.6792,185.3
135,US1INLK0119,"HOBART 2.4 SE, IN US",41.5117635,-87.230223,192.3
136,US1INLK0015,"DYER 1.0 WNW, IN US",41.506694,-87.524821,192.0
137,US1ILCK0173,"PALOS PARK 3.6 WNW, IL US",41.67684,-87.911415,217.6
138,US1ILCK0294,"PALATINE 1.4 NNE, IL US",42.129876,-88.028033,231.6
139,US1ILDP0038,"ELMHURST 0.4 SW, IL US",41.893458,-87.948464,216.1
140,US1INLK0094,"GRIFFITH 1.2 N, IN US",41.539438,-87.425771,188.1
141,US1ILWL0154,"NAPERVILLE 2.9 SSE, IL US",41.72289,-88.13635,206.0
142,US1ILCK0050,"PALOS PARK 1.3 SW, IL US",41.652814,-87.863067,214.0
143,US1ILWL0151,"NEW LENOX 1.5 W, IL US",41.51943,-88.01365,196.3
144,US1ILDP0157,"WEST CHICAGO 3.5 NNE, IL US",41.937182,-88.198848,235.6
145,US1ILCK0331,"NORTHFIELD 0.3 S, IL US",42.095697,-87.7788529,195.1
146,US1INLK0099,"ST. JOHN 2.8 SE, IN US",41.415247,-87.443594,223.1
147,US1ILDP0032,"LISLE 1.3 SE, IL US",41.78143,-88.06739,224.9
148,USC00113490,"GLEN ELLYN 4 S, IL US",41.82693,-88.05811,207.3
149,US1ILCK0296,"CHICAGO HEIGHTS 2.4 NNW, IL US",41.542771,-87.654073,196.0
150,US1ILCK0053,"GLENCOE 0.1 NW, IL US",42.13565,-87.765394,212.1
151,US1ILCK0323,"CHICAGO 6.8 NW, IL US",41.9625,-87.70425,181.7
152,US1ILDP0040,"LOMBARD 1.0 NNW, IL US",41.888412,-88.022942,216.1
153,US1ILDP0161,"WHEATON 1.2 NNW, IL US",41.87278,-88.11416,225.9
154,US1ILCK0168,"RAVENSWOOD MANOR 0.1 ESE, IL US",41.964176,-87.697392,178.3
155,US1ILCK0322,"ARLINGTON HEIGHTS 0.8 NNW, IL US",42.104841,-87.990035,218.5
156,US1ILWL0159,"NEW LENOX 2.1 S, IL US",41.489225,-87.991435,208.8
157,US1ILCK0288,"ROSELLE 0.8 N, IL US",41.9925537109375,-88.084228515625,206.3
158,US1ILCK0321,"EVANSTON 0.9 S, IL US",42.03303,-87.69777,182.9
159,US1ILLK0039,"RIVERWOODS 0.4 ENE, IL US",42.172643,-87.888369,210.9
160,US1ILCK0326,"MORTON GROVE 1.2 WNW, IL US",42.0511,-87.8097,200.3
161,US1INLK0026,"CROWN POINT 1.1 N, IN US",41.439267,-87.3542,217.0
162,US1ILWL0025,"CRETE 2.6 E, IL US",41.446808,-87.565684,212.8
163,US1ILCK0320,"PARK FOREST 0.7 WNW, IL US",41.48579,-87.69962,219.5
164,US1ILWL0147,"NEW LENOX 2.0 ESE, IL US",41.50361,-87.95135,218.2
165,US1ILCK0285,"HARWOOD HEIGHTS 0.4 NNE, IL US",41.971546,-87.803251,197.5
166,US1ILDP0141,"GLEN ELLYN 1.1 WSW, IL US",41.8633883,-88.082855,213.4
167,US1ILCK0042,"MOUNT PROSPECT 3.0 NE, IL US",42.096184,-87.896703,199.0
168,US1ILCK0163,"ARLINGTON HEIGHTS 1.2 SW, IL US",42.081944,-87.997116,215.8
169,US1ILDP0150,"BLOOMINGDALE 1.2 ESE, IL US",41.93972,-88.06657,221.0
170,US1ILCK0278,"HOFFMAN ESTATES 1.6 SE, IL US",42.048122,-88.116188,242.0
171,US1ILWL0149,"BULT FIELD MONEE 4.9 SE, IL US",41.3774,-87.67975,236.8
172,USC00111577,"CHICAGO MIDWAY AIRPORT 3 SW, IL US",41.73727,-87.77734,189.0
173,USW00012842,"TAMPA INTERNATIONAL AIRPORT, FL US",27.96331,-82.54,1.8